{
  "_comment": "CTA Transit Stations - Brown, Red, and Blue Lines only. Filtered from cta-stations-raw.geojson. Each station includes name, address, lines served, and ADA accessibility status.",
  "type": "FeatureCollection",
  "features": [
    {
      "type": "Feature",
      "geometry": {
        "type": "Point",
        "coordinates": [
          -87.74517217791391,
          41.871608050522994
        ]
      },
      "properties": {
        "station_id": "970",
        "longname": "Cicero-Congress",
        "lines": "Blue Line (Congress)",
        "address": "720 S. Cicero Avenue",
        "ada": false
      }
    },
    {
      "type": "Feature",
      "geometry": {
        "type": "Point",
        "coordinates": [
          -87.83802598504772,
          41.984294057828016
        ]
      },
      "properties": {
        "station_id": "230",
        "longname": "Cumberland",
        "lines": "Blue Line",
        "address": "5800 N. Cumberland Avenue",
        "ada": true
      }
    },
    {
      "type": "Feature",
      "geometry": {
        "type": "Point",
        "coordinates": [
          -87.62618878473234,
          41.88322001293653
        ]
      },
      "properties": {
        "station_id": "1700",
        "longname": "Washington/Wabash",
        "lines": "Brown, Orange, Pink,  Purple (Express), Green",
        "address": "29 N. Wabash",
        "ada": true
      }
    },
    {
      "type": "Feature",
      "geometry": {
        "type": "Point",
        "coordinates": [
          -87.63172207547264,
          41.875567625950715
        ]
      },
      "properties": {
        "station_id": "1340",
        "longname": "LaSalle",
        "lines": "Blue Line",
        "address": "150 W. Congress Parkway",
        "ada": false
      }
    },
    {
      "type": "Feature",
      "geometry": {
        "type": "Point",
        "coordinates": [
          -87.64757831015247,
          41.89118929406765
        ]
      },
      "properties": {
        "station_id": "490",
        "longname": "Grand/Milwaukee",
        "lines": "Blue Line (O'Hare)",
        "address": "502 N. Milwaukee Avenue",
        "ada": false
      }
    },
    {
      "type": "Feature",
      "geometry": {
        "type": "Point",
        "coordinates": [
          -87.74361697430824,
          41.961486633040835
        ]
      },
      "properties": {
        "station_id": "1330",
        "longname": "Montrose-O'Hare",
        "lines": "Blue Line",
        "address": "4600 W. Montrose Avenue",
        "ada": false
      }
    },
    {
      "type": "Feature",
      "geometry": {
        "type": "Point",
        "coordinates": [
          -87.63116917003116,
          41.79541826211501
        ]
      },
      "properties": {
        "station_id": "1170",
        "longname": "Garfield-Dan Ryan",
        "lines": "Red Line",
        "address": "220 W. Garfield Boulevard",
        "ada": true
      }
    },
    {
      "type": "Feature",
      "geometry": {
        "type": "Point",
        "coordinates": [
          -87.62517835384935,
          41.750412342729696
        ]
      },
      "properties": {
        "station_id": "240",
        "longname": "79th",
        "lines": "Red Line",
        "address": "15 W. 79th Street",
        "ada": true
      }
    },
    {
      "type": "Feature",
      "geometry": {
        "type": "Point",
        "coordinates": [
          -87.64917726687139,
          41.91065458056037
        ]
      },
      "properties": {
        "station_id": "650",
        "longname": "North/Clybourn",
        "lines": "Red Line",
        "address": "1599 N. Clybourn Avenue",
        "ada": false
      }
    },
    {
      "type": "Feature",
      "geometry": {
        "type": "Point",
        "coordinates": [
          -87.63102579710096,
          41.81033813281231
        ]
      },
      "properties": {
        "station_id": "1230",
        "longname": "47th-Dan Ryan",
        "lines": "Red Line",
        "address": "220 W. 47th Street",
        "ada": true
      }
    },
    {
      "type": "Feature",
      "geometry": {
        "type": "Point",
        "coordinates": [
          -87.6747361074464,
          41.94702865537701
        ]
      },
      "properties": {
        "station_id": "1440",
        "longname": "Addison-Ravenswood",
        "lines": "Brown Line",
        "address": "1818 W. Addison Street",
        "ada": true
      }
    },
    {
      "type": "Feature",
      "geometry": {
        "type": "Point",
        "coordinates": [
          -87.63088601833961,
          41.88573698625938
        ]
      },
      "properties": {
        "station_id": "380",
        "longname": "Clark/Lake",
        "lines": "Brown, Orange, Pink, Purple (Express), Green, Blue",
        "address": "100 W. Lake",
        "ada": true
      }
    },
    {
      "type": "Feature",
      "geometry": {
        "type": "Point",
        "coordinates": [
          -87.62781338044591,
          41.88480886783524
        ]
      },
      "properties": {
        "station_id": "1660",
        "longname": "Lake/State",
        "lines": "Red Line",
        "address": "188 N. State",
        "ada": true
      }
    },
    {
      "type": "Feature",
      "geometry": {
        "type": "Point",
        "coordinates": [
          -87.725624930077,
          41.87388872444464
        ]
      },
      "properties": {
        "station_id": "920",
        "longname": "Pulaski-Congress",
        "lines": "Blue Line (Congress)",
        "address": "530 S. Pulaski Road",
        "ada": false
      }
    },
    {
      "type": "Feature",
      "geometry": {
        "type": "Point",
        "coordinates": [
          -87.72917726558204,
          41.952940261723505
        ]
      },
      "properties": {
        "station_id": "550",
        "longname": "Irving Park-O'Hare",
        "lines": "Blue Line",
        "address": "4131 W. Irving Park Road",
        "ada": false
      }
    },
    {
      "type": "Feature",
      "geometry": {
        "type": "Point",
        "coordinates": [
          -87.65852996352429,
          41.973453322879514
        ]
      },
      "properties": {
        "station_id": "1200",
        "longname": "Argyle",
        "lines": "Red Line",
        "address": "1118 W. Argyle Street",
        "ada": false
      }
    },
    {
      "type": "Feature",
      "geometry": {
        "type": "Point",
        "coordinates": [
          -87.63397336028807,
          41.888967933815984
        ]
      },
      "properties": {
        "station_id": "460",
        "longname": "Merchandise Mart",
        "lines": "Brown, Purple (Express)",
        "address": "350 N. Wells Street",
        "ada": true
      }
    },
    {
      "type": "Feature",
      "geometry": {
        "type": "Point",
        "coordinates": [
          -87.62817635256233,
          41.89667121282868
        ]
      },
      "properties": {
        "station_id": "1450",
        "longname": "Chicago/State",
        "lines": "Red Line",
        "address": "800 N. State Street",
        "ada": true
      }
    },
    {
      "type": "Feature",
      "geometry": {
        "type": "Point",
        "coordinates": [
          -87.63385352993139,
          41.882695018498964
        ]
      },
      "properties": {
        "station_id": "730",
        "longname": "Washington/Wells",
        "lines": "Brown, Orange, Pink, Purple (Express)",
        "address": "100 N. Wells Street",
        "ada": true
      }
    },
    {
      "type": "Feature",
      "geometry": {
        "type": "Point",
        "coordinates": [
          -87.65773404557505,
          41.96425415994733
        ]
      },
      "properties": {
        "station_id": "540",
        "longname": "Wilson",
        "lines": "Purple, Red Line",
        "address": "4920 N. Broadway Street",
        "ada": true
      }
    },
    {
      "type": "Feature",
      "geometry": {
        "type": "Point",
        "coordinates": [
          -87.65521427917491,
          41.89607523740354
        ]
      },
      "properties": {
        "station_id": "1410",
        "longname": "Chicago/Milwaukee",
        "lines": "Blue Line",
        "address": "800 N. Milwaukee Avenue",
        "ada": false
      }
    },
    {
      "type": "Feature",
      "geometry": {
        "type": "Point",
        "coordinates": [
          -87.63373997596631,
          41.87872328348997
        ]
      },
      "properties": {
        "station_id": "40",
        "longname": "Quincy/Wells",
        "lines": "Brown, Orange, Pink, Purple (Express)",
        "address": "220 S. Wells Street",
        "ada": true
      }
    },
    {
      "type": "Feature",
      "geometry": {
        "type": "Point",
        "coordinates": [
          -87.65264430600404,
          41.9182165680886
        ]
      },
      "properties": {
        "station_id": "660",
        "longname": "Armitage",
        "lines": "Brown, Purple (Express)",
        "address": "944 W. Armitage Avenue",
        "ada": true
      }
    },
    {
      "type": "Feature",
      "geometry": {
        "type": "Point",
        "coordinates": [
          -87.6610607008597,
          42.0010733596017
        ]
      },
      "properties": {
        "station_id": "1300",
        "longname": "Loyola",
        "lines": "Red Line",
        "address": "1200 W. Loyola Avenue",
        "ada": true
      }
    },
    {
      "type": "Feature",
      "geometry": {
        "type": "Point",
        "coordinates": [
          -87.62820914456076,
          41.876908340423775
        ]
      },
      "properties": {
        "station_id": "850",
        "longname": "Library",
        "lines": "Brown, Orange, Pink, Purple (Express)",
        "address": "26 W. Van Buren Street",
        "ada": true
      }
    },
    {
      "type": "Feature",
      "geometry": {
        "type": "Point",
        "coordinates": [
          -87.62747911770376,
          41.874039244054394
        ]
      },
      "properties": {
        "station_id": "1490",
        "longname": "Harrison",
        "lines": "Red Line",
        "address": "608 S. State Street",
        "ada": false
      }
    },
    {
      "type": "Feature",
      "geometry": {
        "type": "Point",
        "coordinates": [
          -87.8593877016713,
          41.98350728784708
        ]
      },
      "properties": {
        "station_id": "820",
        "longname": "Rosemont",
        "lines": "Blue Line",
        "address": "5801 N. River Road",
        "ada": true
      }
    },
    {
      "type": "Feature",
      "geometry": {
        "type": "Point",
        "coordinates": [
          -87.69411112481461,
          41.96620994947778
        ]
      },
      "properties": {
        "station_id": "1010",
        "longname": "Rockwell",
        "lines": "Brown Line",
        "address": "4648 N. Rockwell Street",
        "ada": true
      }
    },
    {
      "type": "Feature",
      "geometry": {
        "type": "Point",
        "coordinates": [
          -87.65945550927005,
          41.87588563477907
        ]
      },
      "properties": {
        "station_id": "470",
        "longname": "Racine",
        "lines": "Blue Line",
        "address": "430 S. Racine Avenue",
        "ada": false
      }
    },
    {
      "type": "Feature",
      "geometry": {
        "type": "Point",
        "coordinates": [
          -87.70597829539031,
          41.87442550900997
        ]
      },
      "properties": {
        "station_id": "250",
        "longname": "Kedzie-Homan",
        "lines": "Blue Line (Congress)",
        "address": "530 S. Kedzie Avenue",
        "ada": true
      }
    },
    {
      "type": "Feature",
      "geometry": {
        "type": "Point",
        "coordinates": [
          -87.71235935057341,
          41.93813166977897
        ]
      },
      "properties": {
        "station_id": "60",
        "longname": "Belmont-O'Hare",
        "lines": "Blue Line",
        "address": "3355 W. Belmont Avenue",
        "ada": false
      }
    },
    {
      "type": "Feature",
      "geometry": {
        "type": "Point",
        "coordinates": [
          -87.63100044907034,
          41.78053433456899
        ]
      },
      "properties": {
        "station_id": "910",
        "longname": "63rd-Dan Ryan",
        "lines": "Red Line",
        "address": "220 W. 63rd Street",
        "ada": true
      }
    },
    {
      "type": "Feature",
      "geometry": {
        "type": "Point",
        "coordinates": [
          -87.65362593077104,
          41.94742799746875
        ]
      },
      "properties": {
        "station_id": "1420",
        "longname": "Addison-North Main",
        "lines": "Red Line",
        "address": "940 W. Addison Street",
        "ada": true
      }
    },
    {
      "type": "Feature",
      "geometry": {
        "type": "Point",
        "coordinates": [
          -87.70165573251133,
          41.966146895889715
        ]
      },
      "properties": {
        "station_id": "870",
        "longname": "Francisco",
        "lines": "Brown Line",
        "address": "4648 N. Francisco Avenue",
        "ada": true
      }
    },
    {
      "type": "Feature",
      "geometry": {
        "type": "Point",
        "coordinates": [
          -87.65866841969589,
          41.97798399254405
        ]
      },
      "properties": {
        "station_id": "340",
        "longname": "Berwyn",
        "lines": "Red Line",
        "address": "1121 W. Berwyn Avenue",
        "ada": false
      }
    },
    {
      "type": "Feature",
      "geometry": {
        "type": "Point",
        "coordinates": [
          -87.66360955994172,
          41.94381225617526
        ]
      },
      "properties": {
        "station_id": "360",
        "longname": "Southport",
        "lines": "Brown Line",
        "address": "3411 N. Southport Avenue",
        "ada": true
      }
    },
    {
      "type": "Feature",
      "geometry": {
        "type": "Point",
        "coordinates": [
          -87.71909930215281,
          41.9473601024952
        ]
      },
      "properties": {
        "station_id": "1240",
        "longname": "Addison-O'Hare",
        "lines": "Blue Line",
        "address": "3622 W. Addison Street",
        "ada": true
      }
    },
    {
      "type": "Feature",
      "geometry": {
        "type": "Point",
        "coordinates": [
          -87.90184840013661,
          41.97887673887917
        ]
      },
      "properties": {
        "station_id": "890",
        "longname": "O'Hare Airport",
        "lines": "Blue Line",
        "address": "1000 O'Hare Drive",
        "ada": true
      }
    },
    {
      "type": "Feature",
      "geometry": {
        "type": "Point",
        "coordinates": [
          -87.67495574333226,
          41.95452313953493
        ]
      },
      "properties": {
        "station_id": "1460",
        "longname": "Irving Park-Ravenswood",
        "lines": "Brown Line",
        "address": "1816 W. Irving Park Dr",
        "ada": true
      }
    },
    {
      "type": "Feature",
      "geometry": {
        "type": "Point",
        "coordinates": [
          -87.67516539063618,
          41.96175171130978
        ]
      },
      "properties": {
        "station_id": "1500",
        "longname": "Montrose-Ravenswood",
        "lines": "Brown Line",
        "address": "1814 W. Montrose Avenue",
        "ada": true
      }
    },
    {
      "type": "Feature",
      "geometry": {
        "type": "Point",
        "coordinates": [
          -87.76089227927595,
          41.97063413812226
        ]
      },
      "properties": {
        "station_id": "1280",
        "longname": "Jefferson Park",
        "lines": "Blue Line",
        "address": "4917 N. Milwaukee Avenue",
        "ada": true
      }
    },
    {
      "type": "Feature",
      "geometry": {
        "type": "Point",
        "coordinates": [
          -87.65313085718888,
          41.93273150100663
        ]
      },
      "properties": {
        "station_id": "530",
        "longname": "Diversey",
        "lines": "Brown, Purple (Express)",
        "address": "940 W. Diversey Avenue",
        "ada": true
      }
    },
    {
      "type": "Feature",
      "geometry": {
        "type": "Point",
        "coordinates": [
          -87.62937770045221,
          41.88070346119076
        ]
      },
      "properties": {
        "station_id": "790",
        "longname": "Monroe/Dearborn",
        "lines": "Blue Line",
        "address": "114 S. Dearborn",
        "ada": false
      }
    },
    {
      "type": "Feature",
      "geometry": {
        "type": "Point",
        "coordinates": [
          -87.63096782627767,
          41.853205796014315
        ]
      },
      "properties": {
        "station_id": "1000",
        "longname": "Cermak-Chinatown",
        "lines": "Red Line",
        "address": "138 W. Cermak Road",
        "ada": true
      }
    },
    {
      "type": "Feature",
      "geometry": {
        "type": "Point",
        "coordinates": [
          -87.7085413860205,
          41.92972804225143
        ]
      },
      "properties": {
        "station_id": "1020",
        "longname": "Logan Square",
        "lines": "Blue Line",
        "address": "2620 N. Milwaukee Av",
        "ada": true
      }
    },
    {
      "type": "Feature",
      "geometry": {
        "type": "Point",
        "coordinates": [
          -87.68850260590037,
          41.96625004821776
        ]
      },
      "properties": {
        "station_id": "1480",
        "longname": "Western-Ravenswood",
        "lines": "Brown Line",
        "address": "4645 N. Western Avenue",
        "ada": true
      }
    },
    {
      "type": "Feature",
      "geometry": {
        "type": "Point",
        "coordinates": [
          -87.6294400596467,
          41.88316442656523
        ]
      },
      "properties": {
        "station_id": "370",
        "longname": "Washington/Dearborn",
        "lines": "Blue Line",
        "address": "19 N. Dearborn",
        "ada": false
      }
    },
    {
      "type": "Feature",
      "geometry": {
        "type": "Point",
        "coordinates": [
          -87.65326645004653,
          41.936032602681166
        ]
      },
      "properties": {
        "station_id": "1210",
        "longname": "Wellington",
        "lines": "Brown, Purple (Express)",
        "address": "945 W. Wellington Avenue",
        "ada": true
      }
    },
    {
      "type": "Feature",
      "geometry": {
        "type": "Point",
        "coordinates": [
          -87.64964223079026,
          41.8755162091606
        ]
      },
      "properties": {
        "station_id": "350",
        "longname": "UIC-Halsted",
        "lines": "Blue Line",
        "address": "430 S. Halsted Street",
        "ada": true
      }
    },
    {
      "type": "Feature",
      "geometry": {
        "type": "Point",
        "coordinates": [
          -87.67743665449984,
          41.90974379246453
        ]
      },
      "properties": {
        "station_id": "590",
        "longname": "Damen/Milwaukee",
        "lines": "Blue Line",
        "address": "1558 N. Damen Avenue",
        "ada": false
      }
    },
    {
      "type": "Feature",
      "geometry": {
        "type": "Point",
        "coordinates": [
          -87.81731777906768,
          41.87425731129019
        ]
      },
      "properties": {
        "station_id": "390",
        "longname": "Forest Park",
        "lines": "Blue Line",
        "address": "711 S. Des Plaines Avenue",
        "ada": true
      }
    },
    {
      "type": "Feature",
      "geometry": {
        "type": "Point",
        "coordinates": [
          -87.62441474538349,
          41.722375984242476
        ]
      },
      "properties": {
        "station_id": "450",
        "longname": "95th/Dan Ryan",
        "lines": "Red Line",
        "address": "14 W. 95th Street",
        "ada": true
      }
    },
    {
      "type": "Feature",
      "geometry": {
        "type": "Point",
        "coordinates": [
          -87.63930216454519,
          41.910409180297236
        ]
      },
      "properties": {
        "station_id": "800",
        "longname": "Sedgwick",
        "lines": "Brown, Purple (Express)",
        "address": "1536 N. Sedgwick Avenue",
        "ada": true
      }
    },
    {
      "type": "Feature",
      "geometry": {
        "type": "Point",
        "coordinates": [
          -87.67394587971816,
          41.87563542876877
        ]
      },
      "properties": {
        "station_id": "810",
        "longname": "Illinois Medical District",
        "lines": "Blue Line",
        "address": "430 S. Damen Avenue",
        "ada": true
      }
    },
    {
      "type": "Feature",
      "geometry": {
        "type": "Point",
        "coordinates": [
          -87.6690921120182,
          42.01587618094786
        ]
      },
      "properties": {
        "station_id": "1190",
        "longname": "Jarvis",
        "lines": "Red Line",
        "address": "1523 W. Jarvis Street",
        "ada": false
      }
    },
    {
      "type": "Feature",
      "geometry": {
        "type": "Point",
        "coordinates": [
          -87.62609789982032,
          41.879510219372655
        ]
      },
      "properties": {
        "station_id": "680",
        "longname": "Adams/Wabash",
        "lines": "Brown, Orange, Pink,  Purple (Express), Green",
        "address": "201 S. Wabash Avenue",
        "ada": false
      }
    },
    {
      "type": "Feature",
      "geometry": {
        "type": "Point",
        "coordinates": [
          -87.65849296173627,
          41.96913894081545
        ]
      },
      "properties": {
        "station_id": "770",
        "longname": "Lawrence",
        "lines": "Red Line",
        "address": "1117 W. Lawrence Avenue",
        "ada": false
      }
    },
    {
      "type": "Feature",
      "geometry": {
        "type": "Point",
        "coordinates": [
          -87.65492939219291,
          41.95377494743192
        ]
      },
      "properties": {
        "station_id": "80",
        "longname": "Sheridan",
        "lines": "Red Line",
        "address": "3940 N. Sheridan Road",
        "ada": false
      }
    },
    {
      "type": "Feature",
      "geometry": {
        "type": "Point",
        "coordinates": [
          -87.6590758588342,
          41.990259494019185
        ]
      },
      "properties": {
        "station_id": "880",
        "longname": "Thorndale",
        "lines": "Red Line",
        "address": "1118 W. Thorndale Avenue",
        "ada": false
      }
    },
    {
      "type": "Feature",
      "geometry": {
        "type": "Point",
        "coordinates": [
          -87.70884379252877,
          41.966092607037865
        ]
      },
      "properties": {
        "station_id": "1180",
        "longname": "Kedzie-Ravenswood",
        "lines": "Brown Line",
        "address": "4648 N. Kedzie Avenue",
        "ada": true
      }
    },
    {
      "type": "Feature",
      "geometry": {
        "type": "Point",
        "coordinates": [
          -87.63173383435944,
          41.87685533507961
        ]
      },
      "properties": {
        "station_id": "160",
        "longname": "LaSalle/Van Buren",
        "lines": "Brown, Orange, Pink, Purple (Express)",
        "address": "121 W. Van Buren Street",
        "ada": false
      }
    },
    {
      "type": "Feature",
      "geometry": {
        "type": "Point",
        "coordinates": [
          -87.80696087265021,
          41.873490051902145
        ]
      },
      "properties": {
        "station_id": "980",
        "longname": "Harlem-Congress",
        "lines": "Blue Line (Congress)",
        "address": "701 S. Harlem Avenue",
        "ada": false
      }
    },
    {
      "type": "Feature",
      "geometry": {
        "type": "Point",
        "coordinates": [
          -87.6528658377562,
          41.9250513685894
        ]
      },
      "properties": {
        "station_id": "1220",
        "longname": "Fullerton",
        "lines": "Red, Brown, Purple (Express)",
        "address": "943  W. Fullerton Avenue",
        "ada": true
      }
    },
    {
      "type": "Feature",
      "geometry": {
        "type": "Point",
        "coordinates": [
          -87.68843451104553,
          41.87552957397782
        ]
      },
      "properties": {
        "station_id": "220",
        "longname": "Western-Congress",
        "lines": "Blue Line (Congress)",
        "address": "430 S. Western Avenue",
        "ada": false
      }
    },
    {
      "type": "Feature",
      "geometry": {
        "type": "Point",
        "coordinates": [
          -87.67863488433056,
          41.96641097276443
        ]
      },
      "properties": {
        "station_id": "90",
        "longname": "Damen-Ravenswood",
        "lines": "Brown Line",
        "address": "4643 N. Damen Avenue",
        "ada": true
      }
    },
    {
      "type": "Feature",
      "geometry": {
        "type": "Point",
        "coordinates": [
          -87.63141229300709,
          41.90392031283341
        ]
      },
      "properties": {
        "station_id": "630",
        "longname": "Clark/Division",
        "lines": "Red Line",
        "address": "1200 N. Clark Street",
        "ada": true
      }
    },
    {
      "type": "Feature",
      "geometry": {
        "type": "Point",
        "coordinates": [
          -87.63594665706665,
          41.89677417178116
        ]
      },
      "properties": {
        "station_id": "710",
        "longname": "Chicago/Franklin",
        "lines": "Brown, Purple (Express)",
        "address": "300 W. Chicago Avenue",
        "ada": true
      }
    },
    {
      "type": "Feature",
      "geometry": {
        "type": "Point",
        "coordinates": [
          -87.62580935004172,
          41.76836786586706
        ]
      },
      "properties": {
        "station_id": "990",
        "longname": "69th",
        "lines": "Red Line",
        "address": "15 W. 69th Street",
        "ada": true
      }
    },
    {
      "type": "Feature",
      "geometry": {
        "type": "Point",
        "coordinates": [
          -87.62740238294732,
          41.86736766601225
        ]
      },
      "properties": {
        "station_id": "1400",
        "longname": "Roosevelt/State",
        "lines": "Red Line",
        "address": "1167 S. State Street",
        "ada": true
      }
    },
    {
      "type": "Feature",
      "geometry": {
        "type": "Point",
        "coordinates": [
          -87.6659090897442,
          42.00836181944307
        ]
      },
      "properties": {
        "station_id": "100",
        "longname": "Morse",
        "lines": "Red Line",
        "address": "1358 W. Morse Avenue",
        "ada": false
      }
    },
    {
      "type": "Feature",
      "geometry": {
        "type": "Point",
        "coordinates": [
          -87.62769645951258,
          41.88074455879221
        ]
      },
      "properties": {
        "station_id": "1090",
        "longname": "Monroe/State",
        "lines": "Red Line",
        "address": "26 S. State",
        "ada": false
      }
    },
    {
      "type": "Feature",
      "geometry": {
        "type": "Point",
        "coordinates": [
          -87.6873643813982,
          41.916157429131374
        ]
      },
      "properties": {
        "station_id": "670",
        "longname": "Western/Milwaukee",
        "lines": "Blue Line (O'Hare)",
        "address": "1909 N. Western Avenue",
        "ada": true
      }
    },
    {
      "type": "Feature",
      "geometry": {
        "type": "Point",
        "coordinates": [
          -87.63063629512068,
          41.831190560189036
        ]
      },
      "properties": {
        "station_id": "190",
        "longname": "Sox-35th-Dan Ryan",
        "lines": "Red Line",
        "address": "142 W. 35th Street",
        "ada": true
      }
    },
    {
      "type": "Feature",
      "geometry": {
        "type": "Point",
        "coordinates": [
          -87.64098421671696,
          41.875538904999026
        ]
      },
      "properties": {
        "station_id": "430",
        "longname": "Clinton-Congress",
        "lines": "Blue Line",
        "address": "426 S. Clinton Street",
        "ada": false
      }
    },
    {
      "type": "Feature",
      "geometry": {
        "type": "Point",
        "coordinates": [
          -87.66649606690225,
          41.90335508549131
        ]
      },
      "properties": {
        "station_id": "320",
        "longname": "Division/Milwaukee",
        "lines": "Blue Line",
        "address": "1200 N. Milwaukee Avenue",
        "ada": false
      }
    },
    {
      "type": "Feature",
      "geometry": {
        "type": "Point",
        "coordinates": [
          -87.62475307324942,
          41.73537121137496
        ]
      },
      "properties": {
        "station_id": "1430",
        "longname": "87th",
        "lines": "Red Line",
        "address": "15 W. 87th Street",
        "ada": true
      }
    },
    {
      "type": "Feature",
      "geometry": {
        "type": "Point",
        "coordinates": [
          -87.6968897987879,
          41.92193917150245
        ]
      },
      "properties": {
        "station_id": "570",
        "longname": "California/Milwaukee",
        "lines": "Blue Line (O'Hare)",
        "address": "2211 N. California Avenue",
        "ada": false
      }
    },
    {
      "type": "Feature",
      "geometry": {
        "type": "Point",
        "coordinates": [
          -87.65338048799256,
          41.93975074615252
        ]
      },
      "properties": {
        "station_id": "1320",
        "longname": "Belmont-North Main",
        "lines": "Red, Brown, Purple (Express)",
        "address": "945 W. Belmont Avenue",
        "ada": true
      }
    },
    {
      "type": "Feature",
      "geometry": {
        "type": "Point",
        "coordinates": [
          -87.62783518066094,
          41.88574041081893
        ]
      },
      "properties": {
        "station_id": "260",
        "longname": "State/Lake",
        "lines": "Brown, Orange, Pink,  Purple (Express), Green",
        "address": "200 N. State Street",
        "ada": false
      }
    },
    {
      "type": "Feature",
      "geometry": {
        "type": "Point",
        "coordinates": [
          -87.62929566463735,
          41.87818251886981
        ]
      },
      "properties": {
        "station_id": "70",
        "longname": "Jackson/Dearborn",
        "lines": "Blue Line",
        "address": "328 S. Dearborn",
        "ada": true
      }
    },
    {
      "type": "Feature",
      "geometry": {
        "type": "Point",
        "coordinates": [
          -87.62759609756428,
          41.87815275695708
        ]
      },
      "properties": {
        "station_id": "560",
        "longname": "Jackson/State",
        "lines": "Red Line",
        "address": "230 S. State",
        "ada": true
      }
    },
    {
      "type": "Feature",
      "geometry": {
        "type": "Point",
        "coordinates": [
          -87.79160214979832,
          41.8721079742148
        ]
      },
      "properties": {
        "station_id": "180",
        "longname": "Oak Park-Congress",
        "lines": "Blue Line",
        "address": "950 S. Oak Park Avenue",
        "ada": false
      }
    },
    {
      "type": "Feature",
      "geometry": {
        "type": "Point",
        "coordinates": [
          -87.65884028505945,
          41.983504225254826
        ]
      },
      "properties": {
        "station_id": "1380",
        "longname": "Bryn Mawr",
        "lines": "Red Line",
        "address": "1119 W. Bryn Mawr Avenue",
        "ada": false
      }
    },
    {
      "type": "Feature",
      "geometry": {
        "type": "Point",
        "coordinates": [
          -87.65920227948938,
          41.99366426103332
        ]
      },
      "properties": {
        "station_id": "760",
        "longname": "Granville",
        "lines": "Red Line",
        "address": "1119 W. Granville Avenue",
        "ada": true
      }
    },
    {
      "type": "Feature",
      "geometry": {
        "type": "Point",
        "coordinates": [
          -87.67088394357924,
          41.94370914853046
        ]
      },
      "properties": {
        "station_id": "1310",
        "longname": "Paulina",
        "lines": "Brown Line",
        "address": "3411 N. Paulina Street",
        "ada": true
      }
    },
    {
      "type": "Feature",
      "geometry": {
        "type": "Point",
        "coordinates": [
          -87.77678526925513,
          41.87088639373906
        ]
      },
      "properties": {
        "station_id": "10",
        "longname": "Austin-Congress",
        "lines": "Blue Line",
        "address": "1050 S. Austin Blvd",
        "ada": false
      }
    },
    {
      "type": "Feature",
      "geometry": {
        "type": "Point",
        "coordinates": [
          -87.71314203532829,
          41.96792815152359
        ]
      },
      "properties": {
        "station_id": "1290",
        "longname": "Kimball",
        "lines": "Brown Line",
        "address": "4755 N. Kimball Avenue",
        "ada": true
      }
    },
    {
      "type": "Feature",
      "geometry": {
        "type": "Point",
        "coordinates": [
          -87.62802125739587,
          41.891665201383724
        ]
      },
      "properties": {
        "station_id": "330",
        "longname": "Grand/State",
        "lines": "Red Line",
        "address": "521 N. State Street",
        "ada": true
      }
    },
    {
      "type": "Feature",
      "geometry": {
        "type": "Point",
        "coordinates": [
          -87.80889493503287,
          41.982323370406654
        ]
      },
      "properties": {
        "station_id": "750",
        "longname": "Harlem-O'Hare",
        "lines": "Blue Line (O'Hare)",
        "address": "5550 N. Harlem Avenue",
        "ada": true
      }
    }
  ]
}